{
  "result": {
    "data": {
      "json": [
        {
          "id": "d1LKU6XBvvhYccrUbpvqF",
          "name": "Admiralty Primary School Hall",
          "description": null,
          "address": "11 WOODLANDS CIRCLE ADMIRALTY PRIMARY SCHOOL SINGAPORE 738907",
          "status": "ACTIVE",
          "latitude": 1.4426347903311,
          "longitude": 103.800040119743,
          "postalCode": "738907",
          "type": {
            "name": "DUS",
            "id": "6ZJYS5k0NN0whMIUatTk2"
          }
        },
        {
          "id": "7bg9Z7WtSvoLMpgxWGjTs",
          "name": "Ahmad Ibrahim Secondary School Hall",
          "description": null,
          "address": "751 YISHUN AVENUE 7 AHMAD IBRAHIM SECONDARY SCHOOL SINGAPORE 768928",
          "status": "ACTIVE",
          "latitude": 1.43605975368804,
          "longitude": 103.829718690077,
          "postalCode": "768928",
          "type": {
            "name": "DUS",
            "id": "6ZJYS5k0NN0whMIUatTk2"
          }
        },
        {
          "id": "9zE1soYz9gKof24042MyX",
          "name": "Beacon Primary School Hall",
          "description": null,
          "address": "36 BUKIT PANJANG RING ROAD BEACON PRIMARY SCHOOL SINGAPORE 679944",
          "status": "ACTIVE",
          "latitude": 1.38394936211823,
          "longitude": 103.773632022975,
          "postalCode": "679944",
          "type": {
            "name": "DUS",
            "id": "6ZJYS5k0NN0whMIUatTk2"
          }
        },
        {
          "id": "063L3ZyshZUjdw8xxgUpK",
          "name": "Beatty Secondary School Hall",
          "description": null,
          "address": "1 TOA PAYOH NORTH BEATTY SECONDARY SCHOOL SINGAPORE 318990",
          "status": "ACTIVE",
          "latitude": 1.341790284928,
          "longitude": 103.852280842345,
          "postalCode": "318990",
          "type": {
            "name": "DUS",
            "id": "6ZJYS5k0NN0whMIUatTk2"
          }
        },
        {
          "id": "PgIZQ3UXAZU2wnH1dcFc6",
          "name": "Bedok Green Primary School Hall",
          "description": null,
          "address": "1 BEDOK SOUTH AVENUE 2 BEDOK GREEN PRIMARY SCHOOL SINGAPORE 469317",
          "status": "ACTIVE",
          "latitude": 1.32344593287992,
          "longitude": 103.937878976352,
          "postalCode": "469317",
          "type": {
            "name": "DUS",
            "id": "6ZJYS5k0NN0whMIUatTk2"
          }
        },
        {
          "id": "5TIAp1oDwn8B1grH4hoyi",
          "name": "Bedok South Secondary School Hall",
          "description": null,
          "address": "1 JALAN LANGGAR BEDOK BEDOK SOUTH SECONDARY SCHOOL SINGAPORE 468585",
          "status": "ACTIVE",
          "latitude": 1.32513655159184,
          "longitude": 103.950989139261,
          "postalCode": "468585",
          "type": {
            "name": "DUS",
            "id": "6ZJYS5k0NN0whMIUatTk2"
          }
        },
        {
          "id": "niow1h8bvTWqvEjuooABc",
          "name": "Bendemeer Primary School Hall",
          "description": null,
          "address": "91 BENDEMEER ROAD BENDEMEER PRIMARY SCHOOL SINGAPORE 339948",
          "status": "ACTIVE",
          "latitude": 1.32181250780475,
          "longitude": 103.865404167629,
          "postalCode": "339948",
          "type": {
            "name": "DUS",
            "id": "6ZJYS5k0NN0whMIUatTk2"
          }
        },
        {
          "id": "t9aTrkSIyYRuRo1Ucd3Xv",
          "name": "Bendemeer Secondary School Hall",
          "description": null,
          "address": "1 ST. WILFRED ROAD BENDEMEER SECONDARY SCHOOL SINGAPORE 327919",
          "status": "ACTIVE",
          "latitude": 1.32461111307996,
          "longitude": 103.860970284401,
          "postalCode": "327919",
          "type": {
            "name": "DUS",
            "id": "6ZJYS5k0NN0whMIUatTk2"
          }
        },
        {
          "id": "GdiZXcMkIKELrCkd90qBP",
          "name": "Bishan Clubhouse",
          "description": null,
          "address": "3 BISHAN STREET 14 SINGAPORE 579780",
          "status": "ACTIVE",
          "latitude": 1.35507502935779,
          "longitude": 103.849990446063,
          "postalCode": "579780",
          "type": {
            "name": "SRC",
            "id": "18BtxF4HQYEYBGdnoSM5a"
          }
        },
        {
          "id": "LpiaS3dnMUXa39CrtTm9w",
          "name": "Bishan Sport Hall",
          "description": null,
          "address": "5 BISHAN STREET 14 BISHAN SPORT CENTRE SINGAPORE 579783",
          "status": "ACTIVE",
          "latitude": 1.35528263459438,
          "longitude": 103.850922068559,
          "postalCode": "579783",
          "type": {
            "name": "SRC",
            "id": "18BtxF4HQYEYBGdnoSM5a"
          }
        },
        {
          "id": "eqzbNMrlMOTaSzDvEF05p",
          "name": "Boon Lay Secondary School Hall",
          "description": null,
          "address": "11 JURONG WEST STREET 65 BOON LAY SECONDARY SCHOOL SINGAPORE 648354",
          "status": "ACTIVE",
          "latitude": 1.34272216334333,
          "longitude": 103.701891453912,
          "postalCode": "648354",
          "type": {
            "name": "DUS",
            "id": "6ZJYS5k0NN0whMIUatTk2"
          }
        },
        {
          "id": "DS2Y95tMEksERLSJfBSBz",
          "name": "Bowen Secondary School Hall",
          "description": null,
          "address": "2 LORONG NAPIRI BOWEN SECONDARY SCHOOL SINGAPORE 547529",
          "status": "ACTIVE",
          "latitude": 1.37035994436209,
          "longitude": 103.877659577677,
          "postalCode": "547529",
          "type": {
            "name": "DUS",
            "id": "6ZJYS5k0NN0whMIUatTk2"
          }
        },
        {
          "id": "wpSdUk0uledoInNjK3Kaw",
          "name": "Bukit Canberra Sport Hall",
          "description": null,
          "address": "21 CANBERRA LINK BUKIT CANBERRA SPORT CENTRE SINGAPORE 756973",
          "status": "ACTIVE",
          "latitude": 1.44826336410158,
          "longitude": 103.82276363189,
          "postalCode": "756973",
          "type": {
            "name": "SRC",
            "id": "18BtxF4HQYEYBGdnoSM5a"
          }
        },
        {
          "id": "WYfbYK8b8mvlTx7iiCIJp",
          "name": "Bukit Gombak Sport Hall",
          "description": null,
          "address": "810 BUKIT BATOK WEST AVENUE 5 BUKIT GOMBAK SPORT CENTRE SINGAPORE 659088",
          "status": "ACTIVE",
          "latitude": 1.35975603325519,
          "longitude": 103.752285494299,
          "postalCode": "659088",
          "type": {
            "name": "SRC",
            "id": "18BtxF4HQYEYBGdnoSM5a"
          }
        },
        {
          "id": "ZReBsLW8QTkzuFD1vyFkX",
          "name": "Bukit Panjang Government High School Hall",
          "description": null,
          "address": "7 CHOA CHU KANG AVENUE 4 BUKIT PANJANG GOVERNMENT HIGH SCHOOL SINGAPORE 689809",
          "status": "ACTIVE",
          "latitude": 1.38224243360043,
          "longitude": 103.738361221869,
          "postalCode": "689809",
          "type": {
            "name": "DUS",
            "id": "6ZJYS5k0NN0whMIUatTk2"
          }
        },
        {
          "id": "AkB5NpkMVL7HCmB6DLppX",
          "name": "Bukit Panjang Primary School Hall",
          "description": null,
          "address": "109 CASHEW ROAD BUKIT PANJANG PRIMARY SCHOOL SINGAPORE 679676",
          "status": "ACTIVE",
          "latitude": 1.37350089986584,
          "longitude": 103.769417337654,
          "postalCode": "679676",
          "type": {
            "name": "DUS",
            "id": "6ZJYS5k0NN0whMIUatTk2"
          }
        },
        {
          "id": "rzOCKx6ezbKcGKQWjSHlN",
          "name": "Bukit View Secondary School Hall",
          "description": null,
          "address": "16 BUKIT BATOK STREET 21 BUKIT VIEW SECONDARY SCHOOL SINGAPORE 659633",
          "status": "ACTIVE",
          "latitude": 1.3457330554294,
          "longitude": 103.752226593984,
          "postalCode": "659633",
          "type": {
            "name": "DUS",
            "id": "6ZJYS5k0NN0whMIUatTk2"
          }
        },
        {
          "id": "EhVMAAEMSQPdrpKw4yIaD",
          "name": "Canberra Primary School Hall",
          "description": null,
          "address": "21 ADMIRALTY DRIVE CANBERRA PRIMARY SCHOOL SINGAPORE 757714",
          "status": "ACTIVE",
          "latitude": 1.45125024371543,
          "longitude": 103.815858858929,
          "postalCode": "757714",
          "type": {
            "name": "DUS",
            "id": "6ZJYS5k0NN0whMIUatTk2"
          }
        },
        {
          "id": "2IUHiBUcoNimux7lmUt9h",
          "name": "Canberra Secondary School Hall",
          "description": null,
          "address": "51 SEMBAWANG DRIVE CANBERRA SECONDARY SCHOOL SINGAPORE 757699",
          "status": "ACTIVE",
          "latitude": 1.45319086315972,
          "longitude": 103.814203583818,
          "postalCode": "757699",
          "type": {
            "name": "DUS",
            "id": "6ZJYS5k0NN0whMIUatTk2"
          }
        },
        {
          "id": "hy4Hsg4gHPM3y42YHZyL6",
          "name": "Cantonment Primary School Hall",
          "description": null,
          "address": "1 CANTONMENT CLOSE CANTONMENT PRIMARY SCHOOL SINGAPORE 088256",
          "status": "ACTIVE",
          "latitude": 1.27547252623201,
          "longitude": 103.839962631748,
          "postalCode": "088256",
          "type": {
            "name": "DUS",
            "id": "6ZJYS5k0NN0whMIUatTk2"
          }
        },
        {
          "id": "Us0MaNzoJ6XwGGq2PY98h",
          "name": "Casuarina Primary School Hall",
          "description": null,
          "address": "30 PASIR RIS STREET 41 CASUARINA PRIMARY SINGAPORE 518935",
          "status": "ACTIVE",
          "latitude": 1.37246063927999,
          "longitude": 103.957020286115,
          "postalCode": "518935",
          "type": {
            "name": "DUS",
            "id": "6ZJYS5k0NN0whMIUatTk2"
          }
        },
        {
          "id": "IftVzycvPKY3HYuyLhOYe",
          "name": "Changkat Changi Secondary School Hall",
          "description": null,
          "address": "23 SIMEI STREET 3 CHANGKAT CHANGI SECONDARY SCHOOL SINGAPORE 529894",
          "status": "ACTIVE",
          "latitude": 1.33950630072876,
          "longitude": 103.953245525564,
          "postalCode": "529894",
          "type": {
            "name": "DUS",
            "id": "6ZJYS5k0NN0whMIUatTk2"
          }
        },
        {
          "id": "I5qnyIxLbwQYfZ1D6487A",
          "name": "Changkat Primary School Hall",
          "description": null,
          "address": "11 SIMEI STREET 3 CHANGKAT PRIMARY SCHOOL SINGAPORE 529896",
          "status": "ACTIVE",
          "latitude": 1.34023163951633,
          "longitude": 103.952080114035,
          "postalCode": "529896",
          "type": {
            "name": "DUS",
            "id": "6ZJYS5k0NN0whMIUatTk2"
          }
        },
        {
          "id": "jP33ehBA3lDjp34Lq7dEd",
          "name": "Choa Chu Kang Sport Hall",
          "description": null,
          "address": "1 CHOA CHU KANG STREET 53 CHOA CHU KANG SPORT CENTRE SINGAPORE 689236",
          "status": "ACTIVE",
          "latitude": 1.39059559281482,
          "longitude": 103.748024129362,
          "postalCode": "689236",
          "type": {
            "name": "SRC",
            "id": "18BtxF4HQYEYBGdnoSM5a"
          }
        },
        {
          "id": "liiH4YYsu0f3tlzWgC8I7",
          "name": "Christ Church Secondary School Hall",
          "description": null,
          "address": "20 WOODLANDS DRIVE 17 CHRIST CHURCH SECONDARY SCHOOL SINGAPORE 737924",
          "status": "ACTIVE",
          "latitude": 1.42656780901455,
          "longitude": 103.793451105242,
          "postalCode": "737924",
          "type": {
            "name": "DUS",
            "id": "6ZJYS5k0NN0whMIUatTk2"
          }
        },
        {
          "id": "nqi0R5foGPNhRJnVhbzlS",
          "name": "Clementi Primary School Hall",
          "description": null,
          "address": "8 CLEMENTI AVENUE 3 CLEMENTI PRIMARY SCHOOL SINGAPORE 129903",
          "status": "ACTIVE",
          "latitude": 1.31506321827875,
          "longitude": 103.763144493687,
          "postalCode": "129903",
          "type": {
            "name": "DUS",
            "id": "6ZJYS5k0NN0whMIUatTk2"
          }
        },
        {
          "id": "fU1NDT1wfMMSGcB2GUPst",
          "name": "Clementi Sport Hall",
          "description": null,
          "address": "518 CLEMENTI AVENUE 3 CLEMENTI SPORTS CENTRE SINGAPORE 129907",
          "status": "ACTIVE",
          "latitude": 1.31101498092681,
          "longitude": 103.764861406796,
          "postalCode": "129907",
          "type": {
            "name": "SRC",
            "id": "18BtxF4HQYEYBGdnoSM5a"
          }
        },
        {
          "id": "b3M3CTm1v4G0rpXK16X6t",
          "name": "Clementi Town Secondary School Hall",
          "description": null,
          "address": "10 CLEMENTI AVENUE 3 CLEMENTI TOWN SECONDARY SCHOOL SINGAPORE 129904",
          "status": "ACTIVE",
          "latitude": 1.31553912945073,
          "longitude": 103.762020598524,
          "postalCode": "129904",
          "type": {
            "name": "DUS",
            "id": "6ZJYS5k0NN0whMIUatTk2"
          }
        },
        {
          "id": "u0aa06DkimDKERs98iY4J",
          "name": "Concord Primary School Hall",
          "description": null,
          "address": "3 CHOA CHU KANG AVENUE 4 CONCORD PRIMARY SCHOOL SINGAPORE 689814",
          "status": "ACTIVE",
          "latitude": 1.38026516111464,
          "longitude": 103.736554295636,
          "postalCode": "689814",
          "type": {
            "name": "DUS",
            "id": "6ZJYS5k0NN0whMIUatTk2"
          }
        },
        {
          "id": "CQT4YYAq7wPkHGOuziyvg",
          "name": "Dazhong Primary School Hall",
          "description": null,
          "address": "35 BUKIT BATOK STREET 31 DAZHONG PRIMARY SCHOOL SINGAPORE 659441",
          "status": "ACTIVE",
          "latitude": 1.3591797447277,
          "longitude": 103.74847210784,
          "postalCode": "659441",
          "type": {
            "name": "DUS",
            "id": "6ZJYS5k0NN0whMIUatTk2"
          }
        },
        {
          "id": "a3jznoZlsfyJrl43Tbnog",
          "name": "Delta Sport Hall",
          "description": null,
          "address": "900 TIONG BAHRU ROAD DELTA SPORT CENTRE SINGAPORE 158790",
          "status": "ACTIVE",
          "latitude": 1.29052498417749,
          "longitude": 103.820588112164,
          "postalCode": "158790",
          "type": {
            "name": "SRC",
            "id": "18BtxF4HQYEYBGdnoSM5a"
          }
        },
        {
          "id": "hK0lleSHLFmTTDEfLt627",
          "name": "Deyi Secondary School Hall",
          "description": null,
          "address": "1 ANG MO KIO STREET 42 DEYI SECONDARY SCHOOL SINGAPORE 569277",
          "status": "ACTIVE",
          "latitude": 1.36599702567717,
          "longitude": 103.852545772422,
          "postalCode": "569277",
          "type": {
            "name": "DUS",
            "id": "6ZJYS5k0NN0whMIUatTk2"
          }
        },
        {
          "id": "nTNUP5QWvkDFpWtbfue6R",
          "name": "Dunman High School Hall",
          "description": null,
          "address": "10 TANJONG RHU ROAD DUNMAN HIGH SCHOOL SINGAPORE 436895",
          "status": "ACTIVE",
          "latitude": 1.29996216014962,
          "longitude": 103.88294155989,
          "postalCode": "436895",
          "type": {
            "name": "DUS",
            "id": "6ZJYS5k0NN0whMIUatTk2"
          }
        },
        {
          "id": "5r8EUJDjosfkaF8qqezOU",
          "name": "East Spring Primary School Hall",
          "description": null,
          "address": "31 TAMPINES STREET 33 EAST SPRING PRIMARY SCHOOL SINGAPORE 529258",
          "status": "ACTIVE",
          "latitude": 1.35268400746357,
          "longitude": 103.961676849165,
          "postalCode": "529258",
          "type": {
            "name": "DUS",
            "id": "6ZJYS5k0NN0whMIUatTk2"
          }
        },
        {
          "id": "7z00lbn6Rqy3w4C46HLYf",
          "name": "Edgefield Secondary School Hall",
          "description": null,
          "address": "36 PUNGGOL FIELD EDGEFIELD SECONDARY SCHOOL SINGAPORE 828814",
          "status": "ACTIVE",
          "latitude": 1.40059309981824,
          "longitude": 103.902687385465,
          "postalCode": "828814",
          "type": {
            "name": "DUS",
            "id": "6ZJYS5k0NN0whMIUatTk2"
          }
        },
        {
          "id": "Lz8NJiVKy0IDBs7afQnwj",
          "name": "Elias Park Primary School Hall",
          "description": null,
          "address": "11 PASIR RIS STREET 52 ELIAS PARK PRIMARY SCHOOL SINGAPORE 518866",
          "status": "ACTIVE",
          "latitude": 1.37505696315817,
          "longitude": 103.945289416873,
          "postalCode": "518866",
          "type": {
            "name": "DUS",
            "id": "6ZJYS5k0NN0whMIUatTk2"
          }
        },
        {
          "id": "PoDnMDAYOJPodLWuv8Gxp",
          "name": "Endeavour Primary School Hall",
          "description": null,
          "address": "10 ADMIRALTY LINK ENDEAVOUR PRIMARY SCHOOL SINGAPORE 757521",
          "status": "ACTIVE",
          "latitude": 1.45388170417263,
          "longitude": 103.817174701639,
          "postalCode": "757521",
          "type": {
            "name": "DUS",
            "id": "6ZJYS5k0NN0whMIUatTk2"
          }
        },
        {
          "id": "S37sThPNt4FIIVVnf4rZF",
          "name": "Eunoia Junior College Hall",
          "description": null,
          "address": "2 SIN MING PLACE EUNOIA JUNIOR COLLEGE SINGAPORE 573838",
          "status": "ACTIVE",
          "latitude": 1.36213757183547,
          "longitude": 103.841286169122,
          "postalCode": "573838",
          "type": {
            "name": "DUS",
            "id": "6ZJYS5k0NN0whMIUatTk2"
          }
        },
        {
          "id": "mZ647YYImQ69PjoUNwR9C",
          "name": "Evergreen Primary School Hall",
          "description": null,
          "address": "31 WOODLANDS CIRCLE EVERGREEN PRIMARY SCHOOL SINGAPORE 738908",
          "status": "ACTIVE",
          "latitude": 1.44414835451585,
          "longitude": 103.794545295922,
          "postalCode": "738908",
          "type": {
            "name": "DUS",
            "id": "6ZJYS5k0NN0whMIUatTk2"
          }
        },
        {
          "id": "O0tvwIrzxdBw1jcWmjp7q",
          "name": "Fengshan Primary School Hall",
          "description": null,
          "address": "307 BEDOK NORTH ROAD FENGSHAN PRIMARY SCHOOL SINGAPORE 469680",
          "status": "ACTIVE",
          "latitude": 1.32980598760785,
          "longitude": 103.931710293058,
          "postalCode": "469680",
          "type": {
            "name": "DUS",
            "id": "6ZJYS5k0NN0whMIUatTk2"
          }
        },
        {
          "id": "1KTMl9mhDvBeR0xRoHA9a",
          "name": "Fern Green Primary School Hall",
          "description": null,
          "address": "70 FERNVALE LINK FERN GREEN PRIMARY SCHOOL SINGAPORE 797538",
          "status": "ACTIVE",
          "latitude": 1.39726966050479,
          "longitude": 103.880330305684,
          "postalCode": "797538",
          "type": {
            "name": "DUS",
            "id": "6ZJYS5k0NN0whMIUatTk2"
          }
        },
        {
          "id": "shhtJZhaNDmhhGmyznREq",
          "name": "First Toa Payoh Primary School Hall",
          "description": null,
          "address": "7 LORONG 8 TOA PAYOH FIRST TOA PAYOH PRIMARY SCHOOL SINGAPORE 319252",
          "status": "ACTIVE",
          "latitude": 1.34032299499938,
          "longitude": 103.855529906182,
          "postalCode": "319252",
          "type": {
            "name": "DUS",
            "id": "6ZJYS5k0NN0whMIUatTk2"
          }
        },
        {
          "id": "XD2qpAuXSv8yrvMgKxczH",
          "name": "Frontier Primary School Hall",
          "description": null,
          "address": "20 JURONG WEST STREET 61 FRONTIER PRIMARY SCHOOL SINGAPORE 648200",
          "status": "ACTIVE",
          "latitude": 1.33641298743234,
          "longitude": 103.69970173931,
          "postalCode": "648200",
          "type": {
            "name": "DUS",
            "id": "6ZJYS5k0NN0whMIUatTk2"
          }
        },
        {
          "id": "K7yb8O3NAWIWjXRBfl911",
          "name": "Fuhua Secondary School Hall",
          "description": null,
          "address": "5 JURONG WEST STREET 41 FUHUA SECONDARY SCHOOL SINGAPORE 649410",
          "status": "ACTIVE",
          "latitude": 1.34701408913756,
          "longitude": 103.72652089832,
          "postalCode": "649410",
          "type": {
            "name": "DUS",
            "id": "6ZJYS5k0NN0whMIUatTk2"
          }
        },
        {
          "id": "XsuSgDDoI8aKGowjzD0aS",
          "name": "Gan Eng Seng Primary School Hall",
          "description": null,
          "address": "100 REDHILL CLOSE GAN ENG SENG PRIMARY SCHOOL SINGAPORE 158901",
          "status": "ACTIVE",
          "latitude": 1.28559516494962,
          "longitude": 103.815547410064,
          "postalCode": "158901",
          "type": {
            "name": "DUS",
            "id": "6ZJYS5k0NN0whMIUatTk2"
          }
        },
        {
          "id": "Qt0Viuhpm748aQSdYC2jU",
          "name": "Greendale Primary School Hall",
          "description": null,
          "address": "50 EDGEDALE PLAINS GREENDALE PRIMARY SCHOOL SINGAPORE 828848",
          "status": "ACTIVE",
          "latitude": 1.39648195114256,
          "longitude": 103.91233462071,
          "postalCode": "828848",
          "type": {
            "name": "DUS",
            "id": "6ZJYS5k0NN0whMIUatTk2"
          }
        },
        {
          "id": "9SZuSjvI6tyRvV76JPvq6",
          "name": "Greenridge Secondary School Hall",
          "description": null,
          "address": "31 GANGSA ROAD GREENRIDGE SECONDARY SCHOOL SINGAPORE 678972",
          "status": "ACTIVE",
          "latitude": 1.375600053443,
          "longitude": 103.763998914082,
          "postalCode": "678972",
          "type": {
            "name": "DUS",
            "id": "6ZJYS5k0NN0whMIUatTk2"
          }
        },
        {
          "id": "cPasd6r3T4OmhU8tYyocx",
          "name": "Greenwood Primary School Hall",
          "description": null,
          "address": "11 WOODLANDS DRIVE 62 (GREENWOOD PRIMARY SCHOOL) SINGAPORE 737942",
          "status": "ACTIVE",
          "latitude": 1.43989958331782,
          "longitude": 103.804725587384,
          "postalCode": "737942",
          "type": {
            "name": "DUS",
            "id": "6ZJYS5k0NN0whMIUatTk2"
          }
        },
        {
          "id": "2vQVXKogKPojlagjzNxeX",
          "name": "Heartbeat @ Bedok ActiveSG Sport Hall",
          "description": null,
          "address": "11 BEDOK NORTH STREET 1 HEARTBEAT @ BEDOK SINGAPORE 469662",
          "status": "ACTIVE",
          "latitude": 1.32662388643563,
          "longitude": 103.931806159881,
          "postalCode": "469662",
          "type": {
            "name": "SRC",
            "id": "18BtxF4HQYEYBGdnoSM5a"
          }
        },
        {
          "id": "hzrR3kvk8qcNWKRxkvUkb",
          "name": "Hougang Secondary School Hall",
          "description": null,
          "address": "2 HOUGANG STREET 93 HOUGANG SECONDARY SCHOOL SINGAPORE 534256",
          "status": "ACTIVE",
          "latitude": 1.37764019332164,
          "longitude": 103.882533963338,
          "postalCode": "534256",
          "type": {
            "name": "DUS",
            "id": "6ZJYS5k0NN0whMIUatTk2"
          }
        },
        {
          "id": "7Gkwfqhh4iShnyRIZBs2W",
          "name": "Hua Yi Secondary School Hall",
          "description": null,
          "address": "60 JURONG WEST STREET 42 HUA YI SECONDARY SCHOOL SINGAPORE 649371",
          "status": "ACTIVE",
          "latitude": 1.35234365488339,
          "longitude": 103.721832320169,
          "postalCode": "649371",
          "type": {
            "name": "DUS",
            "id": "6ZJYS5k0NN0whMIUatTk2"
          }
        },
        {
          "id": "AJ13GOe1e0Tg6RCjS2ZcM",
          "name": "Innova Primary School Hall",
          "description": null,
          "address": "80 WOODLANDS DRIVE 17 INNOVA PRIMARY SCHOOL SINGAPORE 737888",
          "status": "ACTIVE",
          "latitude": 1.42896700684852,
          "longitude": 103.790607539185,
          "postalCode": "737888",
          "type": {
            "name": "DUS",
            "id": "6ZJYS5k0NN0whMIUatTk2"
          }
        },
        {
          "id": "BZAkV6o3rmqHMFgGgfPQa",
          "name": "Jiemin Primary School Hall",
          "description": null,
          "address": "2 YISHUN STREET 71 JIEMIN PRIMARY SCHOOL SINGAPORE 768515",
          "status": "ACTIVE",
          "latitude": 1.42768847665227,
          "longitude": 103.830425490093,
          "postalCode": "768515",
          "type": {
            "name": "DUS",
            "id": "6ZJYS5k0NN0whMIUatTk2"
          }
        },
        {
          "id": "oN4FezUSD6tOmATK2CLaY",
          "name": "Junyuan Secondary School Hall",
          "description": null,
          "address": "11 TAMPINES STREET 84 JUNYUAN SECONDARY SCHOOL SINGAPORE 528933",
          "status": "ACTIVE",
          "latitude": 1.35361315263537,
          "longitude": 103.933886165824,
          "postalCode": "528933",
          "type": {
            "name": "DUS",
            "id": "6ZJYS5k0NN0whMIUatTk2"
          }
        },
        {
          "id": "vrkrAMmmGiSIaj7FEMcjx",
          "name": "Jurong East Sport Hall",
          "description": null,
          "address": "21 JURONG EAST STREET 31 JURONG EAST SPORT CENTRE SINGAPORE 609517",
          "status": "ACTIVE",
          "latitude": 1.34649072704441,
          "longitude": 103.729053872207,
          "postalCode": "609517",
          "type": {
            "name": "SRC",
            "id": "18BtxF4HQYEYBGdnoSM5a"
          }
        },
        {
          "id": "IzBcR11fYSeByAUYgp5v6",
          "name": "Jurong Secondary School Hall",
          "description": null,
          "address": "31 YUAN CHING ROAD JURONG SECONDARY SCHOOL SINGAPORE 618652",
          "status": "ACTIVE",
          "latitude": 1.33002032220942,
          "longitude": 103.723952961648,
          "postalCode": "618652",
          "type": {
            "name": "DUS",
            "id": "6ZJYS5k0NN0whMIUatTk2"
          }
        },
        {
          "id": "iQYIzofibpiGOEHMDZTXr",
          "name": "Jurong West Sport Hall",
          "description": null,
          "address": "20 JURONG WEST STREET 93 JURONG WEST SPORT CENTRE SINGAPORE 648965",
          "status": "ACTIVE",
          "latitude": 1.33821088716936,
          "longitude": 103.69386868465,
          "postalCode": "648965",
          "type": {
            "name": "SRC",
            "id": "18BtxF4HQYEYBGdnoSM5a"
          }
        },
        {
          "id": "nmnGRpU0164zksMKaYrlH",
          "name": "Jurongville Secondary School Hall",
          "description": null,
          "address": "202 JURONG EAST AVENUE 1 JURONGVILLE SECONDARY SCHOOL SINGAPORE 609790",
          "status": "ACTIVE",
          "latitude": 1.35128862770284,
          "longitude": 103.728907710089,
          "postalCode": "609790",
          "type": {
            "name": "DUS",
            "id": "6ZJYS5k0NN0whMIUatTk2"
          }
        },
        {
          "id": "kiyKUyVTnvoQTNWVFT4LH",
          "name": "Keming Primary School Hall",
          "description": null,
          "address": "90 BUKIT BATOK EAST AVENUE 6 KEMING PRIMARY SCHOOL SINGAPORE 659762",
          "status": "ACTIVE",
          "latitude": 1.34552849960874,
          "longitude": 103.756449399351,
          "postalCode": "659762",
          "type": {
            "name": "DUS",
            "id": "6ZJYS5k0NN0whMIUatTk2"
          }
        },
        {
          "id": "kOnZuc48plvOq7IthMY2U",
          "name": "Kuo Chuan Presbyterian Primary School Hall",
          "description": null,
          "address": "8 BISHAN STREET 13 KUO CHUAN PRESBYTERIAN PRIMARY SCHOOL (U/C) SINGAPORE 579793",
          "status": "ACTIVE",
          "latitude": 1.34939813669536,
          "longitude": 103.855018233311,
          "postalCode": "579793",
          "type": {
            "name": "DUS",
            "id": "6ZJYS5k0NN0whMIUatTk2"
          }
        },
        {
          "id": "AYfq2dsBbG3q71PK4nOEf",
          "name": "Lakeside Primary School Hall",
          "description": null,
          "address": "161 CORPORATION WALK LAKESIDE PRIMARY SCHOOL SINGAPORE 618310",
          "status": "ACTIVE",
          "latitude": 1.33820397704287,
          "longitude": 103.718089546664,
          "postalCode": "618310",
          "type": {
            "name": "DUS",
            "id": "6ZJYS5k0NN0whMIUatTk2"
          }
        },
        {
          "id": "mkiyzkeIi9xLpa7bVT5lV",
          "name": "Lianhua Primary School Hall",
          "description": null,
          "address": "2 BUKIT BATOK STREET 52 LIANHUA PRIMARY SCHOOL SINGAPORE 659243",
          "status": "ACTIVE",
          "latitude": 1.35424191127295,
          "longitude": 103.754165828711,
          "postalCode": "659243",
          "type": {
            "name": "DUS",
            "id": "6ZJYS5k0NN0whMIUatTk2"
          }
        },
        {
          "id": "wkP0xH10TgRzCtxYN6f0S",
          "name": "Loyang View Secondary School Hall",
          "description": null,
          "address": "12 PASIR RIS STREET 11 LOYANG VIEW SECONDARY SCHOOL SINGAPORE 519073",
          "status": "ACTIVE",
          "latitude": 1.36658417167238,
          "longitude": 103.956944585725,
          "postalCode": "519073",
          "type": {
            "name": "DUS",
            "id": "6ZJYS5k0NN0whMIUatTk2"
          }
        },
        {
          "id": "Vpp2LXTBGVEWe6rgRDeve",
          "name": "Marsiling Primary School Hall",
          "description": null,
          "address": "31 WOODLANDS CENTRE ROAD MARSILING PRIMARY SCHOOL SINGAPORE 738927",
          "status": "ACTIVE",
          "latitude": 1.43383904037059,
          "longitude": 103.773643013846,
          "postalCode": "738927",
          "type": {
            "name": "DUS",
            "id": "6ZJYS5k0NN0whMIUatTk2"
          }
        },
        {
          "id": "Jrqeq5n0xbmdniQTcUplu",
          "name": "Marsiling Secondary School Hall",
          "description": null,
          "address": "12 MARSILING ROAD MARSILING SECONDARY SCHOOL SINGAPORE 739110",
          "status": "ACTIVE",
          "latitude": 1.43664424769955,
          "longitude": 103.776008090454,
          "postalCode": "739110",
          "type": {
            "name": "DUS",
            "id": "6ZJYS5k0NN0whMIUatTk2"
          }
        },
        {
          "id": "wSigiNiu1ozPZPM74lovp",
          "name": "Mayflower Secondary School Hall",
          "description": null,
          "address": "2 ANG MO KIO STREET 21 MAYFLOWER SECONDARY SCHOOL SINGAPORE 569384",
          "status": "ACTIVE",
          "latitude": 1.36827266209722,
          "longitude": 103.835360726863,
          "postalCode": "569384",
          "type": {
            "name": "DUS",
            "id": "6ZJYS5k0NN0whMIUatTk2"
          }
        },
        {
          "id": "NZcfdXsDnvyDZyodX2QaN",
          "name": "Meridian Primary School Hall",
          "description": null,
          "address": "20 PASIR RIS STREET 71 MERIDIAN PRIMARY SCHOOL SINGAPORE 518798",
          "status": "ACTIVE",
          "latitude": 1.37550677054835,
          "longitude": 103.934953276155,
          "postalCode": "518798",
          "type": {
            "name": "DUS",
            "id": "6ZJYS5k0NN0whMIUatTk2"
          }
        },
        {
          "id": "UAeAo7CCXS8viX5UnapTG",
          "name": "Meridian Secondary School Hall",
          "description": null,
          "address": "31 PASIR RIS STREET 51 MERIDIAN SECONDARY SCHOOL SINGAPORE 518901",
          "status": "ACTIVE",
          "latitude": 1.3672468492013,
          "longitude": 103.948972483629,
          "postalCode": "518901",
          "type": {
            "name": "DUS",
            "id": "6ZJYS5k0NN0whMIUatTk2"
          }
        },
        {
          "id": "kEBJKrx1USi4BvQxwMMHs",
          "name": "MOE (Evans) Sport Hall",
          "description": null,
          "address": "21 EVANS ROAD SINGAPORE 259366",
          "status": "ACTIVE",
          "latitude": 1.31846187997069,
          "longitude": 103.819071149611,
          "postalCode": "259366",
          "type": {
            "name": "SRC",
            "id": "18BtxF4HQYEYBGdnoSM5a"
          }
        },
        {
          "id": "Ub9LlzrSwKKNuhDglA0mU",
          "name": "Naval Base Secondary School Hall",
          "description": null,
          "address": "901 YISHUN RING ROAD NAVAL BASE SECONDARY SCHOOL SINGAPORE 768689",
          "status": "ACTIVE",
          "latitude": 1.41937881620441,
          "longitude": 103.831050390247,
          "postalCode": "768689",
          "type": {
            "name": "DUS",
            "id": "6ZJYS5k0NN0whMIUatTk2"
          }
        },
        {
          "id": "GvuqOzOuzHQclAIeVHGCj",
          "name": "New Town Secondary School Hall",
          "description": null,
          "address": "1020 DOVER ROAD NEW TOWN SECONDARY SCHOOL SINGAPORE 139657",
          "status": "ACTIVE",
          "latitude": 1.30977590011357,
          "longitude": 103.77318863421,
          "postalCode": "139657",
          "type": {
            "name": "DUS",
            "id": "6ZJYS5k0NN0whMIUatTk2"
          }
        },
        {
          "id": "1sPQYX9V5NpYIfQSIvv6r",
          "name": "North Vista Primary School Hall",
          "description": null,
          "address": "20 COMPASSVALE LINK NORTH VISTA PRIMARY SCHOOL SINGAPORE 544974",
          "status": "ACTIVE",
          "latitude": 1.38255066171151,
          "longitude": 103.89626457548,
          "postalCode": "544974",
          "type": {
            "name": "DUS",
            "id": "6ZJYS5k0NN0whMIUatTk2"
          }
        },
        {
          "id": "5ozMPpwgFvTb6jWaHhUwU",
          "name": "North Vista Secondary School Hall",
          "description": null,
          "address": "11 RIVERVALE LINK NORTH VISTA SECONDARY SCHOOL SINGAPORE 545081",
          "status": "ACTIVE",
          "latitude": 1.381131285358,
          "longitude": 103.899188813886,
          "postalCode": "545081",
          "type": {
            "name": "DUS",
            "id": "6ZJYS5k0NN0whMIUatTk2"
          }
        },
        {
          "id": "bJkfBR1JpkU2Tz42uBJ7d",
          "name": "Northland Primary School Hall",
          "description": null,
          "address": "15 YISHUN AVENUE 4 NORTHLAND PRIMARY SCHOOL SINGAPORE 769026",
          "status": "ACTIVE",
          "latitude": 1.42130404159807,
          "longitude": 103.840792923345,
          "postalCode": "769026",
          "type": {
            "name": "DUS",
            "id": "6ZJYS5k0NN0whMIUatTk2"
          }
        },
        {
          "id": "jv4V4CoTt4zuzCwYh3rRX",
          "name": "Northland Secondary School Hall",
          "description": null,
          "address": "3 YISHUN STREET 22 NORTHLAND SECONDARY SCHOOL SINGAPORE 768578",
          "status": "ACTIVE",
          "latitude": 1.43580183362637,
          "longitude": 103.840104687784,
          "postalCode": "768578",
          "type": {
            "name": "DUS",
            "id": "6ZJYS5k0NN0whMIUatTk2"
          }
        },
        {
          "id": "TJB5eRejKVw8Iz1xMKjXP",
          "name": "Northoaks Primary School Hall",
          "description": null,
          "address": "61 SEMBAWANG DRIVE NORTHOAKS PRIMARY SCHOOL SINGAPORE 757622",
          "status": "ACTIVE",
          "latitude": 1.45732867302094,
          "longitude": 103.814075611175,
          "postalCode": "757622",
          "type": {
            "name": "DUS",
            "id": "6ZJYS5k0NN0whMIUatTk2"
          }
        },
        {
          "id": "osTnHplt9s99S9CGfprMX",
          "name": "Oasis Primary School Hall",
          "description": null,
          "address": "71 EDGEFIELD PLAINS OASIS PRIMARY SCHOOL SINGAPORE 828716",
          "status": "ACTIVE",
          "latitude": 1.40507184758584,
          "longitude": 103.911200193835,
          "postalCode": "828716",
          "type": {
            "name": "DUS",
            "id": "6ZJYS5k0NN0whMIUatTk2"
          }
        },
        {
          "id": "nqBpgnMrPN8u5LLfvyN2T",
          "name": "Our Tampines Hub - Community Auditorium",
          "description": null,
          "address": "1 TAMPINES WALK OUR TAMPINES HUB SINGAPORE 528523",
          "status": "ACTIVE",
          "latitude": 1.35218046898785,
          "longitude": 103.940598001519,
          "postalCode": "528523",
          "type": {
            "name": "SRC",
            "id": "18BtxF4HQYEYBGdnoSM5a"
          }
        },
        {
          "id": "QAG9aSOv28TZ8lnurRqtA",
          "name": "Park View Primary School Hall",
          "description": null,
          "address": "60 PASIR RIS DRIVE 1 PARK VIEW PRIMARY SCHOOL SINGAPORE 519524",
          "status": "ACTIVE",
          "latitude": 1.37801687647812,
          "longitude": 103.9392021807,
          "postalCode": "519524",
          "type": {
            "name": "DUS",
            "id": "6ZJYS5k0NN0whMIUatTk2"
          }
        },
        {
          "id": "92y0epudFNS0wHbSdYZSq",
          "name": "Pasir Ris Crest Secondary School Hall",
          "description": null,
          "address": "11 PASIR RIS STREET 41 PASIR RIS CREST SECONDARY SCHOOL SINGAPORE 518934",
          "status": "ACTIVE",
          "latitude": 1.37284060102246,
          "longitude": 103.959728202919,
          "postalCode": "518934",
          "type": {
            "name": "DUS",
            "id": "6ZJYS5k0NN0whMIUatTk2"
          }
        },
        {
          "id": "Zgl7HQ7kn1abhxuCN7VFp",
          "name": "Pasir Ris Secondary School Hall",
          "description": null,
          "address": "390 TAMPINES STREET 21 PASIR RIS SECONDARY SCHOOL SINGAPORE 529400",
          "status": "ACTIVE",
          "latitude": 1.35422732653396,
          "longitude": 103.948962626204,
          "postalCode": "529400",
          "type": {
            "name": "DUS",
            "id": "6ZJYS5k0NN0whMIUatTk2"
          }
        },
        {
          "id": "TbIGpVpUxV6SZrxp9tPkB",
          "name": "Pasir Ris Sport Hall",
          "description": null,
          "address": "120 PASIR RIS CENTRAL PASIR RIS SPORT CENTRE SINGAPORE 519640",
          "status": "ACTIVE",
          "latitude": 1.37405935580675,
          "longitude": 103.951850332313,
          "postalCode": "519640",
          "type": {
            "name": "SRC",
            "id": "18BtxF4HQYEYBGdnoSM5a"
          }
        },
        {
          "id": "V0cHEdFG8rbptwBMI8yGd",
          "name": "Peicai Secondary School Hall",
          "description": null,
          "address": "10 SERANGOON AVENUE 4 PEICAI SECONDARY SCHOOL SINGAPORE 556094",
          "status": "ACTIVE",
          "latitude": 1.35951583222214,
          "longitude": 103.870010749055,
          "postalCode": "556094",
          "type": {
            "name": "DUS",
            "id": "6ZJYS5k0NN0whMIUatTk2"
          }
        },
        {
          "id": "94bmiFQAdLVfla9P4Slf2",
          "name": "Peirce Secondary School Hall",
          "description": null,
          "address": "10 SIN MING WALK PEIRCE SECONDARY SCHOOL SINGAPORE 575566",
          "status": "ACTIVE",
          "latitude": 1.36665944653812,
          "longitude": 103.83021606804,
          "postalCode": "575566",
          "type": {
            "name": "DUS",
            "id": "6ZJYS5k0NN0whMIUatTk2"
          }
        },
        {
          "id": "1bPUPjQLm6sCem8ewVJPW",
          "name": "Peiying Primary School Hall",
          "description": null,
          "address": "651 YISHUN RING ROAD PEIYING PRIMARY SCHOOL SINGAPORE 768687",
          "status": "ACTIVE",
          "latitude": 1.41741627551251,
          "longitude": 103.830143209875,
          "postalCode": "768687",
          "type": {
            "name": "DUS",
            "id": "6ZJYS5k0NN0whMIUatTk2"
          }
        },
        {
          "id": "4kXZXBKwVB4xtIg3msBEq",
          "name": "Pioneer Primary School Hall",
          "description": null,
          "address": "31 JURONG WEST STREET 91, PIONEER PRIMARY SCHOOL, SINGAPORE 649037",
          "status": "ACTIVE",
          "latitude": 1.3388763709006,
          "longitude": 103.687889547387,
          "postalCode": "649037",
          "type": {
            "name": "DUS",
            "id": "6ZJYS5k0NN0whMIUatTk2"
          }
        },
        {
          "id": "Fe4pq9qbZZkwHPYyWqRN8",
          "name": "Poi Ching School Hall",
          "description": null,
          "address": "21 TAMPINES STREET 71 POI CHING SCHOOL SINGAPORE 529067",
          "status": "ACTIVE",
          "latitude": 1.35765121877679,
          "longitude": 103.935246486174,
          "postalCode": "529067",
          "type": {
            "name": "DUS",
            "id": "6ZJYS5k0NN0whMIUatTk2"
          }
        },
        {
          "id": "fOf6EXbnJolxlMpVu8rqV",
          "name": "Punggol View Primary School Hall",
          "description": null,
          "address": "9 PUNGGOL PLACE PUNGGOL VIEW PRIMARY SCHOOL SINGAPORE 828845",
          "status": "ACTIVE",
          "latitude": 1.40505250226058,
          "longitude": 103.905299026568,
          "postalCode": "828845",
          "type": {
            "name": "DUS",
            "id": "6ZJYS5k0NN0whMIUatTk2"
          }
        },
        {
          "id": "VZMrUxulVPVG24gl7Xrnx",
          "name": "Qifa Primary School Hall",
          "description": null,
          "address": "50 WEST COAST AVENUE QIFA PRIMARY SCHOOL SINGAPORE 128104",
          "status": "ACTIVE",
          "latitude": 1.3132658326807,
          "longitude": 103.756629101811,
          "postalCode": "128104",
          "type": {
            "name": "DUS",
            "id": "6ZJYS5k0NN0whMIUatTk2"
          }
        },
        {
          "id": "PQV0sZtKKATgkm0mE7sj4",
          "name": "Qihua Primary School Hall",
          "description": null,
          "address": "5 WOODLANDS STREET 81 POWERLIFE STUDENT SERVICES @ QIHUA PRIMARY SCHOOL SINGAPORE 738525",
          "status": "ACTIVE",
          "latitude": 1.44203596557592,
          "longitude": 103.788339762066,
          "postalCode": "738525",
          "type": {
            "name": "DUS",
            "id": "6ZJYS5k0NN0whMIUatTk2"
          }
        },
        {
          "id": "leFoNGWfouhGjXYbR27EH",
          "name": "Queenstown Primary School Hall",
          "description": null,
          "address": "310 MARGARET DRIVE QUEENSTOWN PRIMARY SCHOOL SINGAPORE 149303",
          "status": "ACTIVE",
          "latitude": 1.29552905587752,
          "longitude": 103.807648475656,
          "postalCode": "149303",
          "type": {
            "name": "DUS",
            "id": "6ZJYS5k0NN0whMIUatTk2"
          }
        },
        {
          "id": "5OuHTQesKmt5vJ0hZ0gRE",
          "name": "Queensway Secondary School Hall",
          "description": null,
          "address": "2A MARGARET DRIVE QUEENSWAY SECONDARY SCHOOL SINGAPORE 149295",
          "status": "ACTIVE",
          "latitude": 1.30022271592188,
          "longitude": 103.802207291625,
          "postalCode": "149295",
          "type": {
            "name": "DUS",
            "id": "6ZJYS5k0NN0whMIUatTk2"
          }
        },
        {
          "id": "ELqczOCMqgGTO68hTrVD0",
          "name": "Radin Mas Primary School Hall",
          "description": null,
          "address": "1 BUKIT PURMEI AVENUE RADIN MAS PRIMARY SCHOOL SINGAPORE 099840",
          "status": "ACTIVE",
          "latitude": 1.27489701529771,
          "longitude": 103.824115781658,
          "postalCode": "099840",
          "type": {
            "name": "DUS",
            "id": "6ZJYS5k0NN0whMIUatTk2"
          }
        },
        {
          "id": "p9fLGIN8JxS0irlxyBwXZ",
          "name": "Red Swastika School Hall",
          "description": null,
          "address": "350 BEDOK NORTH AVENUE 3 SINGAPORE 469719",
          "status": "ACTIVE",
          "latitude": 1.33405659580859,
          "longitude": 103.934317528484,
          "postalCode": "469719",
          "type": {
            "name": "DUS",
            "id": "6ZJYS5k0NN0whMIUatTk2"
          }
        },
        {
          "id": "l7Nko7IX9xdfx3DiaCtZ4",
          "name": "Rivervale Primary School Hall",
          "description": null,
          "address": "80 RIVERVALE DRIVE RIVERVALE PRIMARY SCHOOL SINGAPORE 545092",
          "status": "ACTIVE",
          "latitude": 1.39333506298213,
          "longitude": 103.904545253288,
          "postalCode": "545092",
          "type": {
            "name": "DUS",
            "id": "6ZJYS5k0NN0whMIUatTk2"
          }
        },
        {
          "id": "JMJsnnXCzfV7wkG2fCU4N",
          "name": "Sembawang Primary School Hall",
          "description": null,
          "address": "10 SEMBAWANG DRIVE SEMBAWANG PRIMARY SCHOOL SINGAPORE 757715",
          "status": "ACTIVE",
          "latitude": 1.4457453096024,
          "longitude": 103.821152676215,
          "postalCode": "757715",
          "type": {
            "name": "DUS",
            "id": "6ZJYS5k0NN0whMIUatTk2"
          }
        },
        {
          "id": "cWLPCOP0DaRp91TswPcbH",
          "name": "Seng Kang Primary School Hall",
          "description": null,
          "address": "21 COMPASSVALE WALK SENG KANG PRIMARY SCHOOL SINGAPORE 545166",
          "status": "ACTIVE",
          "latitude": 1.38925044778224,
          "longitude": 103.899527879229,
          "postalCode": "545166",
          "type": {
            "name": "DUS",
            "id": "6ZJYS5k0NN0whMIUatTk2"
          }
        },
        {
          "id": "eYMEyuJQ37svFGs7lRjXD",
          "name": "Seng Kang Secondary School Hall",
          "description": null,
          "address": "10 COMPASSVALE LANE SENG KANG SECONDARY SCHOOL SINGAPORE 545090",
          "status": "ACTIVE",
          "latitude": 1.38659683143747,
          "longitude": 103.898365036709,
          "postalCode": "545090",
          "type": {
            "name": "DUS",
            "id": "6ZJYS5k0NN0whMIUatTk2"
          }
        },
        {
          "id": "RjmwZ5DpXxk9rUEXcP1Eq",
          "name": "Sengkang Green Primary School Hall",
          "description": null,
          "address": "15 FERNVALE ROAD SENGKANG GREEN PRIMARY SCHOOL SINGAPORE 797636",
          "status": "ACTIVE",
          "latitude": 1.3925400930811,
          "longitude": 103.874984869551,
          "postalCode": "797636",
          "type": {
            "name": "DUS",
            "id": "6ZJYS5k0NN0whMIUatTk2"
          }
        },
        {
          "id": "cRyHuTcU77VZY7Er3jVf5",
          "name": "Sengkang Sport Hall",
          "description": null,
          "address": "57 ANCHORVALE ROAD SENGKANG SPORT CENTRE SINGAPORE 544964",
          "status": "ACTIVE",
          "latitude": 1.39682003561904,
          "longitude": 103.886846599447,
          "postalCode": "544964",
          "type": {
            "name": "SRC",
            "id": "18BtxF4HQYEYBGdnoSM5a"
          }
        },
        {
          "id": "HOBvXHvooY9higfh69TVj",
          "name": "Serangoon Garden Secondary School Hall",
          "description": null,
          "address": "21 SERANGOON NORTH AVENUE 1 SERANGOON GARDEN SECONDARY SCHOOL SINGAPORE 555889",
          "status": "ACTIVE",
          "latitude": 1.36932570490947,
          "longitude": 103.869270301476,
          "postalCode": "555889",
          "type": {
            "name": "DUS",
            "id": "6ZJYS5k0NN0whMIUatTk2"
          }
        },
        {
          "id": "3DEYLIkm07HzOjfurjKvC",
          "name": "Serangoon Secondary School Hall",
          "description": null,
          "address": "21 SERANGOON NORTH AVENUE 1 SERANGOON GARDEN SECONDARY SCHOOL SINGAPORE 555889",
          "status": "ACTIVE",
          "latitude": 1.36932570490947,
          "longitude": 103.869270301476,
          "postalCode": "555889",
          "type": {
            "name": "DUS",
            "id": "6ZJYS5k0NN0whMIUatTk2"
          }
        },
        {
          "id": "lKEsT2QFlC9IvEZBD4SYr",
          "name": "Shuqun Primary School Hall",
          "description": null,
          "address": "8 JURONG WEST STREET 51 SHUQUN PRIMARY SCHOOL SINGAPORE 649332",
          "status": "ACTIVE",
          "latitude": 1.34686967259067,
          "longitude": 103.721559387203,
          "postalCode": "649332",
          "type": {
            "name": "DUS",
            "id": "6ZJYS5k0NN0whMIUatTk2"
          }
        },
        {
          "id": "859QPd8kzWT2vhgK5xlFd",
          "name": "South View Primary School Hall",
          "description": null,
          "address": "6 CHOA CHU KANG CENTRAL SOUTH VIEW PRIMARY SCHOOL SINGAPORE 689762",
          "status": "ACTIVE",
          "latitude": 1.38143123987698,
          "longitude": 103.747153671,
          "postalCode": "689762",
          "type": {
            "name": "DUS",
            "id": "6ZJYS5k0NN0whMIUatTk2"
          }
        },
        {
          "id": "XXjIDkenq2PJCl0K9Z0QP",
          "name": "St Anthony's Primary School Hall",
          "description": null,
          "address": "30 BUKIT BATOK STREET 32 ST ANTHONY'S PRIMARY SCHOOL SINGAPORE 659401",
          "status": "ACTIVE",
          "latitude": 1.36411948475833,
          "longitude": 103.749251919049,
          "postalCode": "659401",
          "type": {
            "name": "DUS",
            "id": "6ZJYS5k0NN0whMIUatTk2"
          }
        },
        {
          "id": "RBC3BhHXlonpOAHS8vVYH",
          "name": "St Gabriel's Secondary School Hall",
          "description": null,
          "address": "24 SERANGOON AVENUE 1 SAINT GABRIEL'S SECONDARY SCHOOL SINGAPORE 556140",
          "status": "ACTIVE",
          "latitude": 1.34648798732177,
          "longitude": 103.876094163287,
          "postalCode": "556140",
          "type": {
            "name": "DUS",
            "id": "6ZJYS5k0NN0whMIUatTk2"
          }
        },
        {
          "id": "hYycEG6ZKDzU9hPtylTnO",
          "name": "Swiss Cottage Secondary School Hall",
          "description": null,
          "address": "3 BUKIT BATOK STREET 34 SWISS COTTAGE SECONDARY SCHOOL SINGAPORE 659322",
          "status": "ACTIVE",
          "latitude": 1.36471742697475,
          "longitude": 103.750396136688,
          "postalCode": "659322",
          "type": {
            "name": "DUS",
            "id": "6ZJYS5k0NN0whMIUatTk2"
          }
        },
        {
          "id": "9tXy1KidVs30boQrZL9UJ",
          "name": "Teck Ghee Primary School Hall",
          "description": null,
          "address": "1 ANG MO KIO STREET 32 TECK GHEE PRIMARY SCHOOL SINGAPORE 569299",
          "status": "ACTIVE",
          "latitude": 1.36565018546903,
          "longitude": 103.851009800453,
          "postalCode": "569299",
          "type": {
            "name": "DUS",
            "id": "6ZJYS5k0NN0whMIUatTk2"
          }
        },
        {
          "id": "lPVLkQadHo9kcrsVzXn0w",
          "name": "Unity Primary School Hall",
          "description": null,
          "address": "21 CHOA CHU KANG CRESCENT UNITY PRIMARY SCHOOL SINGAPORE 688268",
          "status": "ACTIVE",
          "latitude": 1.40278303219036,
          "longitude": 103.746801233973,
          "postalCode": "688268",
          "type": {
            "name": "DUS",
            "id": "6ZJYS5k0NN0whMIUatTk2"
          }
        },
        {
          "id": "F3xRj0oJrtsATkGAjjExT",
          "name": "Unity Secondary School Hall",
          "description": null,
          "address": "20 CHOA CHU KANG STREET 62 UNITY SECONDARY SCHOOL SINGAPORE 689143",
          "status": "ACTIVE",
          "latitude": 1.40001524119441,
          "longitude": 103.74602091483,
          "postalCode": "689143",
          "type": {
            "name": "DUS",
            "id": "6ZJYS5k0NN0whMIUatTk2"
          }
        },
        {
          "id": "Nyj8pYIPzftWajtf8Kh7b",
          "name": "Wellington Primary School Hall",
          "description": null,
          "address": "10 WELLINGTON CIRCLE WELLINGTON PRIMARY SCHOOL SINGAPORE 757702",
          "status": "ACTIVE",
          "latitude": 1.45168517614776,
          "longitude": 103.822516208087,
          "postalCode": "757702",
          "type": {
            "name": "DUS",
            "id": "6ZJYS5k0NN0whMIUatTk2"
          }
        },
        {
          "id": "QT8qwI8IX05TghAKm2cL1",
          "name": "Westwood Secondary School Hall",
          "description": null,
          "address": "11 JURONG WEST STREET 25 WESTWOOD SECONDARY SCHOOL SINGAPORE 648350",
          "status": "ACTIVE",
          "latitude": 1.35373698510994,
          "longitude": 103.701772102139,
          "postalCode": "648350",
          "type": {
            "name": "DUS",
            "id": "6ZJYS5k0NN0whMIUatTk2"
          }
        },
        {
          "id": "Qulnp10Fos2i45rlgrA5b",
          "name": "Woodgrove Primary School Hall",
          "description": null,
          "address": "2 WOODLANDS DRIVE WOODGROVE PRIMARY SCHOOL SINGAPORE 738079",
          "status": "ACTIVE",
          "latitude": 1.43273620725049,
          "longitude": 103.79023031392,
          "postalCode": "738079",
          "type": {
            "name": "DUS",
            "id": "6ZJYS5k0NN0whMIUatTk2"
          }
        },
        {
          "id": "ZYCSb8V69HUhNJeDKsEJf",
          "name": "Woodlands Secondary School Hall",
          "description": null,
          "address": "11 MARSILING ROAD WOODLANDS SECONDARY SCHOOL SINGAPORE 739111",
          "status": "ACTIVE",
          "latitude": 1.43912528141356,
          "longitude": 103.774586410437,
          "postalCode": "739111",
          "type": {
            "name": "DUS",
            "id": "6ZJYS5k0NN0whMIUatTk2"
          }
        },
        {
          "id": "OzrxvbMIJ0qQEw9h0suQT",
          "name": "Woodlands Sport Hall",
          "description": null,
          "address": "2 WOODLANDS STREET 12 WOODLANDS SPORT CENTRE SINGAPORE 738620",
          "status": "ACTIVE",
          "latitude": 1.4341397536544,
          "longitude": 103.77985009679,
          "postalCode": "738620",
          "type": {
            "name": "SRC",
            "id": "18BtxF4HQYEYBGdnoSM5a"
          }
        },
        {
          "id": "rhK3pSR5ifFrB2AVCMOeK",
          "name": "Yio Chu Kang Primary School Hall",
          "description": null,
          "address": "1 HOUGANG STREET 51 YIO CHU KANG PRIMARY SCHOOL SINGAPORE 538720",
          "status": "ACTIVE",
          "latitude": 1.37793264345276,
          "longitude": 103.885643682171,
          "postalCode": "538720",
          "type": {
            "name": "DUS",
            "id": "6ZJYS5k0NN0whMIUatTk2"
          }
        },
        {
          "id": "nMIUcV8GPzzfSkcxPCrIN",
          "name": "Yio Chu Kang Secondary School Hall",
          "description": null,
          "address": "3063 ANG MO KIO AVENUE 5 YIO CHU KANG SECONDARY SCHOOL SINGAPORE 569868",
          "status": "ACTIVE",
          "latitude": 1.37797597740925,
          "longitude": 103.84213696352,
          "postalCode": "569868",
          "type": {
            "name": "DUS",
            "id": "6ZJYS5k0NN0whMIUatTk2"
          }
        },
        {
          "id": "pYMh2B4kDjs6JEE5SoxbJ",
          "name": "Yio Chu Kang Sport Hall",
          "description": null,
          "address": "200 ANG MO KIO AVENUE 9 YIO CHU KANG SPORT CENTRE SINGAPORE 569770",
          "status": "ACTIVE",
          "latitude": 1.38227243947685,
          "longitude": 103.845767848209,
          "postalCode": "569770",
          "type": {
            "name": "SRC",
            "id": "18BtxF4HQYEYBGdnoSM5a"
          }
        },
        {
          "id": "ojB243CSdOOmCDy6JZlae",
          "name": "Yishun Primary School Hall",
          "description": null,
          "address": "500 YISHUN RING ROAD YISHUN PRIMARY SCHOOL SINGAPORE 768679",
          "status": "ACTIVE",
          "latitude": 1.43397617334964,
          "longitude": 103.834050796658,
          "postalCode": "768679",
          "type": {
            "name": "DUS",
            "id": "6ZJYS5k0NN0whMIUatTk2"
          }
        },
        {
          "id": "nm8H0TYFkiiOWvx5YqZB8",
          "name": "Yishun Secondary School Hall",
          "description": null,
          "address": "4 YISHUN STREET 71 YISHUN SECONDARY SCHOOL SINGAPORE 768516",
          "status": "ACTIVE",
          "latitude": 1.42813324276086,
          "longitude": 103.828764316679,
          "postalCode": "768516",
          "type": {
            "name": "DUS",
            "id": "6ZJYS5k0NN0whMIUatTk2"
          }
        },
        {
          "id": "gwkeAKobIqSCOXA6OgULY",
          "name": "Yishun Sport Hall",
          "description": null,
          "address": "101 YISHUN AVENUE 1 YISHUN SPORT CENTRE SINGAPORE 769130",
          "status": "ACTIVE",
          "latitude": 1.41201836718275,
          "longitude": 103.831177390838,
          "postalCode": "769130",
          "type": {
            "name": "SRC",
            "id": "18BtxF4HQYEYBGdnoSM5a"
          }
        },
        {
          "id": "P2fLTWSMzdMj3ZI2V1wVy",
          "name": "Yishun Town Secondary School Hall",
          "description": null,
          "address": "6 YISHUN STREET 21 YISHUN TOWN SECONDARY SCHOOL SINGAPORE 768610",
          "status": "ACTIVE",
          "latitude": 1.43232156717386,
          "longitude": 103.838094226361,
          "postalCode": "768610",
          "type": {
            "name": "DUS",
            "id": "6ZJYS5k0NN0whMIUatTk2"
          }
        },
        {
          "id": "vW0Nt7VfFelL2kKdKIx2p",
          "name": "Yuan Ching Secondary School Hall",
          "description": null,
          "address": "103 YUAN CHING ROAD YUAN CHING SECONDARY SCHOOL SINGAPORE 618654",
          "status": "ACTIVE",
          "latitude": 1.34200635764467,
          "longitude": 103.72089870437,
          "postalCode": "618654",
          "type": {
            "name": "DUS",
            "id": "6ZJYS5k0NN0whMIUatTk2"
          }
        },
        {
          "id": "hk36GXwN2zUdZuB8Ylxt5",
          "name": "Zhonghua Primary School Hall",
          "description": null,
          "address": "12 SERANGOON AVENUE 4 ZHONGHUA PRIMARY SCHOOL SINGAPORE 556095",
          "status": "ACTIVE",
          "latitude": 1.36026072476019,
          "longitude": 103.869712517383,
          "postalCode": "556095",
          "type": {
            "name": "DUS",
            "id": "6ZJYS5k0NN0whMIUatTk2"
          }
        }
      ]
    }
  }
}
